[
  {
    "id": 1,
    "name": "Cafe Terrace Gifu",
    "image": "https://images.unsplash.com/photo-1554118811-1e0d58224f24?auto=format&fit=crop&q=80&w=1000",
    "rating": 4.5,
    "description": "広々とした駐車場でアルファードでも安心。キッズスペースも完備。",
    "address": "岐阜県岐阜市宇佐南1-1-1",
    "map_address": "岐阜県岐阜市宇佐南1-1-1",
    "tel": "058-111-2222",
    "business_hours": "7:00 - 18:00",
    "morning_hours": "7:00 - 11:00",
    "regular_holiday": "火曜日",
    "parking_count": 25,
    "parking_difficulty": "易",
    "parking_size_type": "Large/Minivan",
    "nearby_parking": false,
    "has_second_parking": true,
    "has_kids_space": true,
    "has_kids_menu": true,
    "kids_menu": "おこさまパンケーキプレート、キッズうどん",
    "has_high_chair": true,
    "has_wifi": true
  },
  {
    "id": 2,
    "name": "Morning Club Hashima",
    "image": "https://images.unsplash.com/photo-1559339352-11d035aa65de?auto=format&fit=crop&q=80&w=1000",
    "rating": 3.8,
    "description": "昔ながらの落ち着いた雰囲気。近くにコインパーキングあり。",
    "address": "岐阜県羽島市竹鼻町123",
    "map_address": "岐阜県羽島市竹鼻町123",
    "tel": "058-333-4444",
    "business_hours": "8:00 - 17:00",
    "morning_hours": "8:00 - 10:30",
    "regular_holiday": "水曜日",
    "parking_count": 8,
    "parking_difficulty": "普",
    "parking_size_type": "Normal",
    "nearby_parking": true,
    "has_second_parking": false,
    "has_kids_space": false,
    "has_kids_menu": true,
    "kids_menu": "ミニサンドイッチセット",
    "has_high_chair": false,
    "has_wifi": false
  },
  {
    "id": 3,
    "name": "Bakery Cafe Wheat",
    "image": "https://images.unsplash.com/photo-1509440159596-0249088772ff?auto=format&fit=crop&q=80&w=1000",
    "rating": 4.2,
    "description": "隠れ家的なパン屋さん。駐車場は狭めなので軽自動車推奨。",
    "address": "岐阜県岐阜市茜部4-5-6",
    "map_address": "岐阜県岐阜市茜部4-5-6",
    "tel": "058-555-6666",
    "business_hours": "9:00 - 19:00",
    "morning_hours": "9:00 - 11:00",
    "regular_holiday": "月曜日・第3火曜日",
    "parking_count": 4,
    "parking_difficulty": "難",
    "parking_size_type": "Light only",
    "nearby_parking": false,
    "has_second_parking": false,
    "has_kids_space": false,
    "has_kids_menu": false,
    "kids_menu": null,
    "has_high_chair": false,
    "has_wifi": true
  },
  {
    "id": 4,
    "name": "Family Diner Ogaki",
    "image": "https://images.unsplash.com/photo-1555396273-367ea4eb4db5?auto=format&fit=crop&q=80&w=1000",
    "rating": 4.7,
    "description": "大型チェーン店のような安心感。家族連れに大人気。",
    "address": "岐阜県大垣市林町7-8-9",
    "map_address": "岐阜県大垣市林町7-8-9",
    "tel": "0584-77-8888",
    "business_hours": "6:00 - 22:00",
    "morning_hours": "6:00 - 10:30",
    "regular_holiday": "年中無休",
    "parking_count": 40,
    "parking_difficulty": "易",
    "parking_size_type": "Large/Minivan",
    "nearby_parking": false,
    "has_second_parking": true,
    "has_kids_space": true,
    "has_kids_menu": true,
    "kids_menu": "おこさまカレー、おこさまランチ",
    "has_high_chair": true,
    "has_wifi": true
  },
  {
    "id": 5,
    "name": "Coffee House Green",
    "image": "https://images.unsplash.com/photo-1495474472287-4d71bcdd2085?auto=format&fit=crop&q=80&w=1000",
    "rating": 4.0,
    "description": "自然光が入る明るい店内。ベビーカー入店OKの広さ。",
    "address": "岐阜県各務原市那加10-11",
    "map_address": "岐阜県各務原市那加10-11",
    "tel": "058-333-1111",
    "business_hours": "7:30 - 18:00",
    "morning_hours": "7:30 - 11:30",
    "regular_holiday": "木曜日",
    "parking_count": 12,
    "parking_difficulty": "普",
    "parking_size_type": "Normal",
    "nearby_parking": true,
    "has_second_parking": false,
    "has_kids_space": false,
    "has_kids_menu": true,
    "kids_menu": "キッズドリンク、ミニトースト",
    "has_high_chair": true,
    "has_wifi": false
  },
  {
    "id": 6,
    "name": "Grandma's Kitchen",
    "image": "https://images.unsplash.com/photo-1511920170033-f8396924c348?auto=format&fit=crop&q=80&w=1000",
    "rating": 4.9,
    "description": "孫と行きたいお店No.1。段差なしのバリアフリー設計。",
    "address": "岐阜県本巣市三橋22-22",
    "map_address": "岐阜県本巣市三橋22-22",
    "tel": "058-323-9999",
    "business_hours": "8:00 - 16:00",
    "morning_hours": "8:00 - 12:00",
    "regular_holiday": "日曜日・祝日",
    "parking_count": 15,
    "parking_difficulty": "易",
    "parking_size_type": "Large/Minivan",
    "nearby_parking": false,
    "has_second_parking": true,
    "has_kids_space": true,
    "has_kids_menu": true,
    "kids_menu": "手作りおにぎりセット",
    "has_high_chair": true,
    "has_wifi": true
  }
]